,city,latitude,longitude,temperature,windspeed,country,date,clouds,humidity
0,rikitea,-23.12,-134.97,73.33,13.44,PF,1603194851,13,78
1,zhezkazgan,47.8,67.71,59.02,6.98,KZ,1603194851,0,24
2,yellowknife,62.46,-114.35,25,5.01,CA,1603194851,83,79
3,huangchuan,32.13,115.04,61.03,3,CN,1603194851,100,70
4,new norfolk,-42.78,147.06,54,2.57,AU,1603194852,89,67
5,ngunguru,-35.62,174.5,55,7.58,NZ,1603194852,79,90
6,kapaa,22.08,-159.32,73.99,8.01,US,1603194852,7,80
7,verkhnyaya inta,65.98,60.31,23.61,4.92,RU,1603194852,100,97
8,sao filipe,14.9,-24.5,86.47,9.57,CV,1603194852,80,56
9,okhotsk,59.38,143.3,24.51,14.38,RU,1603194828,11,80
10,cape town,-33.93,18.42,68,12.75,ZA,1603194720,40,52
11,guerrero negro,27.98,-114.06,67.96,8.16,MX,1603194853,0,89
12,hobyo,5.35,48.53,83.7,18.97,SO,1603194853,7,70
13,yaan,7.38,8.57,89.46,3.22,NG,1603194553,15,60
14,loikaw,19.67,97.21,67.89,2.82,MM,1603194853,83,93
15,jamestown,42.1,-79.24,48,11.41,US,1603194853,90,100
16,albany,42.6,-73.97,59,7.38,US,1603194853,86,78
17,clyde river,70.47,-68.59,24.06,8.75,CA,1603194854,26,89
18,celestun,20.87,-90.4,79,9.28,MX,1603194854,0,83
19,yumen,40.28,97.2,50.49,13.27,CN,1603194786,4,37
20,ribeira grande,38.52,-28.7,66.2,9.17,PT,1603194855,40,59
21,araouane,18.9,-3.53,94.17,11.27,ML,1603194855,0,10
22,teguldet,57.31,88.17,35.26,8.23,RU,1603194855,100,96
23,ushuaia,-54.8,-68.3,35.6,25.28,AR,1603194855,75,80
24,bagdarin,54.43,113.6,21.69,6.87,RU,1603194855,35,85
25,liverpool,53.41,-2.98,64.99,14.99,GB,1603194855,75,63
26,alyangula,-13.85,136.42,82.4,6.93,AU,1603194856,57,69
27,hermanus,-34.42,19.23,64,4,ZA,1603194760,13,63
28,victoria,22.29,114.16,80.01,16.4,HK,1603194600,1,71
29,fomboni,-12.28,43.74,80.2,5.28,KM,1603194856,0,70
30,punta arenas,-53.15,-70.92,39.2,12.75,CL,1603194856,20,65
31,atuona,-9.8,-139.03,77.38,20.94,PF,1603194856,4,77
32,zhanakorgan,43.91,67.25,68.38,6.6,KZ,1603194857,0,23
33,salas,43.41,-6.26,70,2.59,ES,1603194857,99,77
34,shirgaon,19.7,72.7,83.98,7.74,IN,1603194857,74,79
35,atar,20.52,-13.05,94.33,13.29,MR,1603194758,0,19
36,saskylakh,71.92,114.08,21.4,4.25,RU,1603194814,93,97
37,lavrentiya,65.58,-171,33.75,5.53,RU,1603194858,0,87
38,mataura,-46.19,168.86,48,1.01,NZ,1603194858,86,79
39,traiguen,-38.25,-72.68,43.52,4.5,CL,1603194858,0,75
40,chuy,-33.7,-53.46,62.38,18.01,UY,1603194858,82,61
41,ust-maya,60.42,134.53,21.65,2.35,RU,1603194739,100,97
42,mehamn,71.04,27.85,37.4,11.41,NO,1603194727,40,74
43,hilo,19.73,-155.09,69.8,4.7,US,1603194845,20,83
44,tupik,54.43,119.93,30.04,2.53,RU,1603194860,100,98
45,iqaluit,63.75,-68.51,24.01,3,CA,1603194860,100,85
46,te anau,-45.42,167.72,37.94,1.28,NZ,1603194860,17,86
47,niigata,37.9,139.02,59,3.36,JP,1603194860,20,62
48,alice springs,-23.7,133.88,75.2,12.75,AU,1603194861,40,60
49,wabag,-5.48,143.7,54.88,1.99,PG,1603194861,100,93
50,hithadhoo,-0.6,73.08,83.28,13.18,MV,1603194861,53,76
51,shenjiamen,29.96,122.3,67.86,12.35,CN,1603194861,5,76
52,karratha,-20.74,116.85,71.33,12.77,AU,1603194861,0,83
53,bluff,-46.6,168.33,48,1.01,NZ,1603194861,74,79
54,mayumba,-3.43,10.66,79.92,8.88,GA,1603194861,95,81
55,haines junction,60.75,-137.51,25.9,3.09,CA,1603194862,100,83
56,margate,51.38,1.39,63,8.01,GB,1603194862,100,80
57,vostok,46.49,135.88,32.41,4.99,RU,1603194743,0,90
58,petropavlovsk-kamchatskiy,53.05,158.65,32,8.95,RU,1603194743,38,83
59,minsk,53.9,27.57,46.4,11.18,BY,1603194862,75,59
60,nuqui,5.71,-77.27,74.21,3.27,CO,1603194862,94,88
61,codrington,-38.27,141.97,48.09,3.83,AU,1603194863,100,86
62,pilar,-9.6,-35.96,80.6,11.41,BR,1603194863,40,69
63,ponta do sol,32.67,-17.1,73.4,18.34,PT,1603194863,40,60
64,hobart,-42.88,147.33,54,10.29,AU,1603194623,75,81
65,port alfred,-33.59,26.89,68.54,27.47,ZA,1603194863,33,56
66,busselton,-33.65,115.33,62.01,13.24,AU,1603194863,24,53
67,broome,42.25,-75.83,57.99,9.17,US,1603194864,75,93
68,pisco,-13.7,-76.22,59,1.12,PE,1603194864,40,82
69,pangnirtung,66.15,-65.71,22.77,8.25,CA,1603194864,100,92
70,bodden town,19.28,-81.25,80.6,4.7,KY,1603194864,20,88
71,port hedland,-20.32,118.57,75.2,12.75,AU,1603194864,1,88
72,muros,42.78,-9.06,64,15.99,ES,1603194864,98,82
73,havre-saint-pierre,50.23,-63.6,44.64,6.31,CA,1603194865,100,97
74,geraldton,-28.77,114.6,66.2,14.99,AU,1603194839,90,72
75,kavieng,-2.57,150.8,83.17,6.73,PG,1603194865,100,72
76,cherskiy,68.75,161.3,21.74,3.13,RU,1603194739,100,97
77,nemuro,43.32,145.57,50.5,8.75,JP,1603194660,1,65
78,abakaliki,6.32,8.12,86.13,4.76,NG,1603194635,65,70
79,airai,-8.93,125.41,62.6,1.99,TL,1603194865,48,95
80,kodiak,57.79,-152.41,42.8,9.17,US,1603194866,75,70
81,barrow,71.29,-156.79,32,12.75,US,1603194866,90,97
82,high rock,26.62,-78.28,77,11.41,BS,1603194866,75,94
83,bonthe,7.53,-12.51,85.41,9.8,SL,1603194866,72,67
84,chokurdakh,70.63,147.92,13.73,2.21,RU,1603194738,90,97
85,roma,43.21,-75.46,57.99,7.11,US,1603194866,90,93
86,kroya,-7.63,109.25,79.68,5.08,ID,1603194867,84,85
87,ternate,0.8,127.4,81.59,6.76,ID,1603194867,70,78
88,port lincoln,-34.73,135.87,59.94,8.19,AU,1603194867,100,76
89,asekeyevo,53.57,52.8,48.36,10.83,RU,1603194867,41,51
90,bredasdorp,-34.53,20.04,68,17.22,ZA,1603194867,39,49
91,puerto ayora,-0.74,-90.35,69.01,8.99,EC,1603194867,96,91
92,kaeo,-35.1,173.78,55,5.14,NZ,1603194868,52,90
93,tuktoyaktuk,69.45,-133.04,18.86,12.84,CA,1603194868,98,97
94,krasnoselkup,65.7,82.47,23.52,9.08,RU,1603194868,96,98
95,saint-philippe,-21.36,55.77,81,20.8,RE,1603194868,11,61
96,sai buri,6.7,101.62,81.27,3.83,TH,1603194869,9,76
97,pevek,69.7,170.31,30.33,16.75,RU,1603194770,69,93
98,qaanaaq,77.48,-69.36,26.11,8.12,GL,1603194869,56,84
99,faanui,-16.48,-151.75,78.37,16.51,PF,1603194869,65,80
100,gizo,-8.1,156.84,82.94,8.14,SB,1603194869,56,77
101,vila franca do campo,37.72,-25.43,64.4,18.34,PT,1603194869,20,63
102,dikson,73.51,80.55,21.29,12.5,RU,1603194870,73,94
103,ilo,-17.64,-71.34,63.39,4.9,PE,1603194870,86,75
104,sobolevo,54.43,31.9,39.87,15.7,RU,1603194870,84,72
105,saldanha,-33.01,17.94,69.8,10.29,ZA,1603194870,1,43
106,lebu,-37.62,-73.65,49.77,14.2,CL,1603194870,0,71
107,butaritari,3.07,172.79,82.02,10.02,KI,1603194870,98,74
108,hambantota,6.12,81.12,91.4,16.11,LK,1603194749,20,52
109,northam,51.03,-4.22,63,15.01,GB,1603194871,6,80
110,nome,64.5,-165.41,28.4,3.36,US,1603194871,1,92
111,provideniya,64.38,-173.3,36.43,9.71,RU,1603194871,13,89
112,north las vegas,36.2,-115.12,66.99,4.7,US,1603194871,1,22
113,portland,45.52,-122.68,51.8,3.36,US,1603194871,75,81
114,cordoba,-31.41,-64.18,60.01,11.41,AR,1603194732,90,87
115,tasiilaq,65.61,-37.64,33.8,8.05,GL,1603194872,40,69
116,castro,-24.79,-50.01,70.36,5.79,BR,1603194872,48,71
117,klamath falls,42.22,-121.78,43,3.36,US,1603194872,1,80
118,mach,29.86,67.33,80.55,2.35,PK,1603194872,0,11
119,ponta delgada,37.73,-25.67,64.4,18.34,PT,1603194873,20,63
120,vaini,-21.2,-175.2,71.6,9.17,TO,1603194873,20,73
121,saint-francois,46.42,3.91,64.4,16.11,FR,1603194873,99,59
122,bethel,41.37,-73.41,57,1.99,US,1603194873,90,100
123,riyadh,24.69,46.72,89.6,14.99,SA,1603194873,0,10
124,san cristobal,7.77,-72.22,75.2,2.24,VE,1603194874,75,88
125,bambous virieux,-20.34,57.76,80.6,12.75,MU,1603194874,40,65
126,torbay,47.67,-52.73,53.01,3,CA,1603194874,14,83
127,governador valadares,-18.85,-41.95,76.44,1.61,BR,1603194875,100,71
128,kaitangata,-46.28,169.85,48,1.9,NZ,1603194875,98,89
129,sao joao da barra,-21.64,-41.05,77,11.41,BR,1603194875,75,73
130,luzhou,28.87,105.44,57.72,2.01,CN,1603194875,100,89
131,ahipara,-35.17,173.17,55.63,5.08,NZ,1603194687,41,89
132,akdepe,42.06,59.38,78.8,6.93,TM,1603194875,0,12
133,mackenzie,55.3,-123.17,28.83,2.1,CA,1603194876,98,96
134,labe,11.32,-12.28,81.72,4.23,GN,1603194876,75,53
135,izumo,35.37,132.77,57.2,2.24,JP,1603194876,0,82
136,yinchuan,38.47,106.27,53.85,8.14,CN,1603194876,3,32
137,east london,-33.02,27.91,69.8,26.4,ZA,1603194876,70,52
138,san patricio,28.02,-97.52,75.2,9.17,US,1603194876,20,88
139,arraial do cabo,-22.97,-42.03,75.2,13.87,BR,1603194876,40,83
140,bandarbeyla,9.49,50.81,83.25,13.38,SO,1603194877,22,65
141,norman wells,65.28,-126.83,15.98,9.62,CA,1603194877,92,92
142,kikwit,-5.04,18.82,88.23,5.64,CD,1603194877,65,53
143,eidfjord,60.47,7.07,40.95,5.88,NO,1603194877,100,69
144,harij,23.7,71.9,92.89,7.25,IN,1603194877,77,46
145,vestmannaeyjar,63.44,-20.27,35.6,4.7,IS,1603194878,0,75
146,miyako,39.64,141.95,51.78,5.41,JP,1603194750,0,66
147,avarua,-21.21,-159.78,76.42,3.94,CK,1603194878,69,79
148,constitucion,-35.33,-72.42,54.07,8.14,CL,1603194878,0,68
149,nyurba,63.28,118.33,19.74,4.85,RU,1603194878,82,97
150,krasnystaw,50.98,23.17,53.6,6.93,PL,1603194878,82,66
151,comodoro rivadavia,-45.87,-67.5,46.4,8.05,AR,1603194878,0,52
152,puerto berrio,6.49,-74.4,72.72,1.52,CO,1603194878,92,94
153,tigre,-34.43,-58.58,55.4,20.8,AR,1603194879,100,82
154,tabas,33.6,56.92,84.2,4.7,IR,1603194879,0,7
155,sitka,57.05,-135.33,39.2,6.93,US,1603194774,90,93
156,khatanga,71.97,102.5,8.11,8.03,RU,1603194738,85,95
157,adrar,20.5,-10.07,91.63,10.13,MR,1603194879,0,12
158,niamey,13.51,2.11,96.8,11.41,NE,1603194879,0,37
159,hanmer springs,-42.52,172.82,46.76,1.45,NZ,1603194879,100,83
160,leeton,-34.57,146.4,63,4.9,AU,1603194880,18,76
161,half moon bay,37.46,-122.43,57.99,2.01,US,1603194880,90,93
162,sisimiut,66.94,-53.67,37.04,17.4,GL,1603194730,100,93
163,meadow lake,34.8,-106.54,51.01,2.24,US,1603194881,1,30
164,esperance,-33.87,121.9,60.8,16.11,AU,1603194881,90,93
165,wloclawek,52.65,19.07,53.01,1.99,PL,1603194881,99,71
166,alcantara,-2.41,-44.41,82.4,18.34,BR,1603194881,40,74
167,road town,18.42,-64.62,79,2.24,VG,1603194881,40,94
168,matara,5.95,80.54,81.39,12.12,LK,1603194881,57,75
169,kargil,34.57,76.1,49.59,4.56,IN,1603194882,0,29
170,dubova,44.62,22.27,62.01,6.17,RO,1603194882,0,6
171,bayana,26.9,77.28,85.91,4.68,IN,1603194882,2,15
172,naze,28.37,129.48,77,18.34,JP,1603194882,75,78
173,bonavista,48.65,-53.11,52,1.99,CA,1603194883,88,87
174,tocopilla,-22.09,-70.2,65.05,5.55,CL,1603194883,9,48
175,kamenka,51.32,42.77,50.25,15.84,RU,1603194883,0,45
176,vila do maio,15.13,-23.22,91.4,13.87,CV,1603194883,40,43
177,humaita,-7.51,-63.02,81.97,2.13,BR,1603194884,86,67
178,chimbote,-9.09,-78.58,61.7,3.96,PE,1603194884,43,85
179,souillac,-20.52,57.52,80.6,12.75,MU,1603194884,40,65
180,champerico,14.3,-91.92,61,3,GT,1603194884,94,97
181,mecca,21.43,39.83,100.44,5.21,SA,1603194601,0,7
182,udachnyy,66.42,112.4,14,2.24,RU,1603194884,90,92
183,cabo san lucas,22.89,-109.91,75,1.01,MX,1603194884,0,86
184,perni,41,24.64,68,8.05,GR,1603194885,20,32
185,touros,-5.2,-35.46,80.6,9.17,BR,1603194885,40,74
186,santa rosa,14.31,121.11,77,9.17,PH,1603194675,90,94
187,hurghada,27.26,33.81,91.4,13.87,EG,1603194885,0,38
188,auki,-8.77,160.7,78.64,4.9,SB,1603194885,99,83
189,along,28.17,94.77,70.65,0.56,IN,1603194885,7,86
190,laguna,38.42,-121.42,59,3.74,US,1603194885,1,82
191,novopokrovka,49.84,36.55,50,17.9,UA,1603194886,75,49
192,gushikawa,26.35,127.87,80.6,16.11,JP,1603194886,75,78
193,ruteng,-8.61,120.47,65.32,2.17,ID,1603194886,86,100
194,weiser,44.25,-116.97,57.2,19.46,US,1603194886,1,47
195,leningradskiy,69.38,178.42,28.15,8.23,RU,1603194886,0,90
196,changde,29.05,111.68,54.27,4.23,CN,1603194887,100,88
197,luderitz,-26.65,15.16,76.26,36.69,NA,1603194887,0,28
198,port elizabeth,-33.92,25.57,69.8,28.86,ZA,1603194887,20,52
199,puerto ayacucho,5.66,-67.62,78.15,2.46,VE,1603194888,56,83
200,teya,60.38,92.63,27.1,3.38,RU,1603194888,86,97
201,aswan,24.09,32.91,103.6,7.2,EG,1603194889,0,9
202,luga,58.74,29.85,40.23,7.56,RU,1603194740,88,72
203,baker city,44.77,-117.83,51.8,17.22,US,1603194889,90,57
204,stari bohorodchany,48.83,24.52,55.4,2.24,UA,1603194889,40,47
205,dzhebariki-khaya,62.22,135.8,17.64,3.74,RU,1603194889,100,93
206,grand-santi,4.25,-54.38,81.61,4.45,GF,1603194890,72,66
207,wasilla,61.58,-149.44,24.8,0.89,US,1603194890,1,92
208,saint-ambroise,48.55,-71.33,39.99,6.29,CA,1603194890,100,99
209,aklavik,68.22,-135.01,18.34,9.8,CA,1603194891,94,94
210,kuala terengganu,5.33,103.14,84.2,2.24,MY,1603194891,40,83
211,ucluelet,48.93,-125.55,46,3.13,CA,1603194891,99,98
212,saint george,37.1,-113.58,57.2,2.77,US,1603194891,1,20
213,havelock,34.88,-76.9,64.99,5.82,US,1603194891,90,93
214,pompeu,-19.22,-44.94,61.65,4.32,BR,1603194891,100,99
215,curvelo,-18.76,-44.43,63.75,2.1,BR,1603194891,100,95
216,qasigiannguit,68.82,-51.19,39.2,11.41,GL,1603194892,75,80
217,xichang,27.9,102.26,48.49,8.55,CN,1603194892,100,78
218,kodinsk,58.69,99.18,28.44,3.98,RU,1603194892,100,97
219,tsaratanana,-16.78,47.65,95.56,7.9,MG,1603194892,0,24
220,naron,43.52,-8.15,68,5.01,ES,1603194892,90,63
221,longyearbyen,78.22,15.64,24.8,6.93,SJ,1603194892,20,68
222,winnemucca,40.97,-117.74,33.8,5.82,US,1603194893,1,47
223,deputatskiy,69.3,139.9,9.14,1.54,RU,1603194893,97,95
224,fruitvale,39.08,-108.5,39.2,3,US,1603194893,1,38
225,mastic beach,40.77,-72.85,62.6,5.82,US,1603194893,90,82
226,guadalupe,25.68,-100.25,73.4,8.05,MX,1603194893,75,88
227,tuatapere,-46.13,167.68,48,1.01,NZ,1603194893,94,79
228,grenfell,-33.9,148.17,55.33,5.7,AU,1603194894,0,76
229,waipawa,-41.41,175.52,62.6,4.7,NZ,1603194894,100,59
230,luanda,-8.84,13.23,84.2,8.05,AO,1603194789,40,66
231,praia da vitoria,38.73,-27.07,64.99,28.1,PT,1603194894,40,72
232,spoleto,42.74,12.74,62.01,2.24,IT,1603194895,1,75
233,qui nhon,13.77,109.23,78.13,13.47,VN,1603194895,67,89
234,santa vitoria do palmar,-33.52,-53.37,63.45,18.14,BR,1603194895,77,61
235,fairbanks,64.84,-147.72,18,1.05,US,1603194896,75,85
236,chamonix-mont-blanc,45.92,6.87,55,5.59,FR,1603194896,98,58
237,vanimo,-2.67,141.3,79.79,2.62,PG,1603194896,59,80
238,russell,32.35,-85.2,64.4,5.1,US,1603194896,40,87
239,dong xoai,11.53,106.92,77.14,3.71,VN,1603194752,100,91
240,fernandopolis,-20.28,-50.25,77.11,8.55,BR,1603194896,66,71
241,emerald,-23.53,148.17,77,12.75,AU,1603194897,50,61
242,boa vista,2.82,-60.67,80.6,3.36,BR,1603194897,75,74
243,camacari,-12.7,-38.32,80.6,12.75,BR,1603194897,75,69
244,kamaishi,39.27,141.88,53.47,5.17,JP,1603194897,4,65
245,kumla,59.13,15.14,43,6.93,SE,1603194898,100,86
246,mangrol,21.12,70.12,85.01,13.42,IN,1603194898,41,73
247,kushmurun,52.45,64.63,61.03,12.95,KZ,1603194898,96,34
248,westport,41.14,-73.36,60.01,5.26,US,1603194772,90,93
249,si racha,13.17,100.93,86,6.42,TH,1603194898,94,60
250,la asuncion,11.03,-63.86,80.6,8.05,VE,1603194899,0,88
251,sinnamary,5.38,-52.95,83.77,11.1,GF,1603194899,48,72
252,salta,-24.79,-65.41,69.8,4.7,AR,1603194900,20,52
253,husavik,66.04,-17.34,28.4,4.7,IS,1603194900,96,92
254,chara,56.91,118.26,22.51,4.34,RU,1603194900,100,93
255,carman,49.5,-98,21.2,4.7,CA,1603194762,90,79
256,dubbo,-32.25,148.62,60.8,9.17,AU,1603194901,6,63
257,pokaran,26.92,71.92,98.22,8.79,IN,1603194901,2,17
258,alugan,12.22,125.48,79.75,6.17,PH,1603194901,66,87
259,ewa beach,21.32,-158.01,80.6,10.29,US,1603194901,40,74
260,mandera,3.94,41.87,94.01,3.44,KE,1603194901,3,31
261,lovozero,68,35.01,32.86,9.15,RU,1603194902,99,95
262,seymchan,62.88,152.43,18.1,1.83,RU,1603194902,93,93
263,namibe,-15.2,12.15,77,16.11,AO,1603194902,20,65
264,jackson,42.42,-122.83,50,0.94,US,1603194902,1,66
265,gondanglegi,-7.75,112.01,78.62,11.68,ID,1603194902,59,81
266,ostrovnoy,68.05,39.51,37.47,14.52,RU,1603194738,100,79
267,kollam,8.88,76.6,82.4,3.36,IN,1603194903,75,88
268,olafsvik,64.89,-23.71,37.42,5.03,IS,1603194903,65,76
269,hofn,64.25,-15.21,38.3,5.17,IS,1603194903,94,71
270,severo-kurilsk,50.68,156.12,40.1,20.56,RU,1603194743,20,70
271,tonota,-21.48,27.48,100.4,13.87,BW,1603194903,0,7
272,birpur,26.52,87.02,80.76,2.57,IN,1603194904,5,57
273,carnarvon,-24.87,113.63,69.8,17.22,AU,1603194904,0,77
274,norton,-17.88,30.7,89.04,5.08,ZW,1603194904,0,12
275,ordzhonikidze,52.44,61.74,60.3,10.02,KZ,1603194905,100,31
276,eydhafushi,5.1,73.07,82.67,14.29,MV,1603194905,91,78
277,tual,-5.67,132.75,81.52,13.89,ID,1603194905,76,80
278,zenzeli,45.92,47.05,62.62,13.02,RU,1603194906,16,39
279,meulaboh,4.14,96.13,81.34,2.77,ID,1603194906,6,78
280,hasaki,35.73,140.83,57.2,5.82,JP,1603194750,20,82
281,poum,-20.23,164.02,75.63,7.34,NC,1603194906,45,67
282,rorvik,64.86,11.24,37.4,13.87,NO,1603194906,20,69
283,bengkulu,-3.8,102.27,79.23,3.04,ID,1603194640,82,78
284,upernavik,72.79,-56.15,31.91,7.81,GL,1603194747,100,91
285,magadan,59.57,150.8,30.09,5.06,RU,1603194617,58,85
286,north platte,41.12,-100.77,35.6,8.05,US,1603194654,1,80
287,alexandria,31.22,29.96,89.6,6.93,EG,1603194758,0,40
288,lata,40.16,-8.33,62.01,1.99,PT,1603194907,100,96
289,nikolskoye,59.7,30.79,39.2,15.66,RU,1603194907,75,64
290,ullapool,57.9,-5.16,53.01,4,GB,1603194728,100,56
291,progreso,21.28,-89.67,75,4.7,MX,1603194908,5,94
292,okahandja,-21.98,16.92,91.4,4.7,NA,1603194908,0,9
293,rocha,-34.48,-54.33,52.56,12.86,UY,1603194909,100,73
294,dudinka,69.41,86.18,10.4,6.71,RU,1603194808,87,85
295,bemidji,47.47,-94.88,30,6.93,US,1603194909,90,74
296,college,64.86,-147.8,18,1.07,US,1603194909,75,85
297,nakhon thai,17.1,100.84,77,2.24,TH,1603194909,75,88
298,oum hadjer,13.3,19.7,101.66,13.6,TD,1603194909,0,8
299,punto fijo,11.7,-70.2,83.52,6.8,VE,1603194910,100,75
300,kavaratti,10.57,72.64,81.97,9.93,IN,1603194910,65,70
301,tiksi,71.69,128.87,13.12,16.91,RU,1603194911,99,93
302,evensk,61.95,159.23,35.82,8.68,RU,1603194739,100,85
303,salalah,17.02,54.09,91.4,9.17,OM,1603194747,64,38
304,harper,4.38,-7.72,82,6.8,LR,1603194911,76,69
305,kichmengskiy gorodok,59.98,45.79,35.96,5.59,RU,1603194911,99,88
306,casper,42.87,-106.31,37.99,9.17,US,1603194911,75,86
307,vardo,70.37,31.11,35.6,21.92,NO,1603194727,40,93
308,kontagora,10.4,5.47,95.54,3.02,NG,1603194912,47,35
309,santa fe,-31.63,-60.7,61,15.01,AR,1603194718,100,91
310,boke,10.94,-14.3,90.12,3.69,GN,1603194912,87,61
311,raudeberg,61.99,5.14,41,12.62,NO,1603194913,100,92
312,sabha,27.04,14.43,83.32,11.88,LY,1603194913,32,31
313,labuhan,-6.88,112.21,82.4,9.91,ID,1603194913,9,78
314,vila,42.03,-8.16,60.01,3,PT,1603194913,99,78
315,harwich,51.94,1.28,63,8.99,GB,1603194913,100,72
316,faxinal,-24,-51.32,73.98,5.53,BR,1603194913,8,66
317,khasan,42.43,130.64,54.91,6.85,RU,1603194914,0,83
318,iralaya,15,-83.23,77.54,5.06,HN,1603194914,98,88
319,pyapon,16.28,95.68,77,8.3,MM,1603194914,100,92
320,neyshabur,36.21,58.8,73.87,4.03,IR,1603194915,0,13
321,kralendijk,12.15,-68.27,82.4,9.17,BQ,1603194915,89,83
322,oranjemund,-28.55,16.43,64.9,24.16,NA,1603194915,0,58
323,tucuman,-26.82,-65.22,68,8.05,AR,1603194886,75,88
324,wangqing,43.32,129.76,47.28,3.38,CN,1603194916,0,66
325,bagotville,-28.98,153.42,62.6,2.24,AU,1603194916,33,77
326,thompson,55.74,-97.86,18.54,4.45,CA,1603194761,73,96
327,lompoc,34.64,-120.46,55.4,4.85,US,1603194917,90,93
328,warmbad,-28.45,18.73,78.89,12.97,NA,1603194917,0,16
329,nizhniy odes,63.64,54.86,31.08,2.86,RU,1603194917,94,99
330,egvekinot,66.32,-179.17,31.06,5.08,RU,1603194917,97,100
331,bilibino,68.05,166.44,18.01,2.1,RU,1603194918,100,94
332,morki,56.43,48.99,39.31,10.33,RU,1603194918,95,74
333,obidos,-1.92,-55.52,86.22,7.14,BR,1603194918,98,59
334,kurchum,48.57,83.65,45.19,6.24,KZ,1603194918,0,49
335,bangangte,5.14,10.52,75.07,4,CM,1603194919,63,72
336,walvis bay,-22.96,14.51,73.4,5.82,NA,1603194919,1,46
337,padang,-0.95,100.35,81.21,2.66,ID,1603194812,49,73
338,puerto cabezas,14.04,-83.39,75.85,6.67,NI,1603194919,100,90
339,bontang,0.13,117.5,80.19,7.14,ID,1603194919,78,81
340,sovetskaya gavan,48.97,140.29,38.1,6.91,RU,1603194919,0,71
341,dolores,-36.31,-57.68,54.63,9.1,AR,1603194919,85,56
342,isangel,-19.55,169.27,73.8,13.27,VU,1603194920,43,79
343,georgetown,5.41,100.34,86,2.24,MY,1603194876,20,74
344,maracacume,-2.04,-45.96,85.84,6.35,BR,1603194920,81,61
345,namtsy,62.72,129.67,15.8,2.24,RU,1603194739,40,92
346,andra,62.51,65.89,32.81,3.67,RU,1603194739,96,96
347,rionero in vulture,40.93,15.67,64.99,2.24,IT,1603194920,20,62
348,trelew,-43.25,-65.31,55.94,5.26,AR,1603194920,4,36
349,nanortalik,60.14,-45.24,36.63,5.32,GL,1603194921,100,83
350,san quintin,30.48,-115.95,64.98,9.48,MX,1603194921,4,90
351,traverse city,44.76,-85.62,39,3.36,US,1603194921,90,86
352,opuwo,-18.06,13.84,99.57,8.08,NA,1603194921,0,8
353,roald,62.58,6.13,42.8,13.87,NO,1603194727,75,75
354,dhidhdhoo,6.88,73.1,82.45,14.27,MV,1603194749,57,78
355,monterey,36.25,-121.25,54,1.79,US,1603194921,90,100
356,huarmey,-10.07,-78.15,63.28,3.83,PE,1603194922,54,79
357,waseca,44.08,-93.51,32,10.29,US,1603194922,90,95
358,norwich,52.63,1.3,64.99,13.87,GB,1603194922,40,77
359,naryan-mar,67.67,53.09,26.01,2.51,RU,1603194922,100,96
360,mashhad,36.3,59.61,80.6,6.93,IR,1603194746,0,18
361,saint-joseph,-21.37,55.62,81,20.8,RE,1603194922,7,61
362,jalu,29.03,21.55,86.2,7.23,LY,1603194923,7,31
363,kirakira,-10.45,161.92,79.16,11.39,SB,1603194923,100,81
364,nantucket,41.28,-70.1,57,6.93,US,1603194923,90,93
365,coihaique,-45.58,-72.07,35.6,4.7,CL,1603194923,29,80
366,hauterive,46.09,3.45,62.6,20.8,FR,1603194923,96,59
367,mogadishu,2.04,45.34,86,12.75,SO,1603194923,20,62
368,tiebissou,7.16,-5.23,82.4,6.93,CI,1603194923,75,74
369,svencioneliai,55.17,26,44.62,7.27,LT,1603194924,51,62
370,broken hill,-31.95,141.43,64.4,3.36,AU,1603194924,90,31
371,wawa,9.9,4.42,93.18,3,NG,1603194924,40,46
372,panjab,34.39,67.02,57.02,7.87,AF,1603194924,0,21
373,esmeraldas,-19.76,-44.31,66.2,4.7,BR,1603194924,75,82
374,qaqortoq,60.72,-46.03,33.8,3.78,GL,1603194924,75,91
375,lodja,-3.48,23.43,85.1,3.58,CD,1603194925,84,67
376,bollnas,61.35,16.39,34.41,4.59,SE,1603194925,100,92
377,sarangani,5.4,125.46,83.05,11.63,PH,1603194925,51,76
378,murgab,37.5,61.97,78.8,9.17,TM,1603194925,0,14
379,tiarei,-17.53,-149.33,77,4.7,PF,1603194925,20,69
380,klaksvik,62.23,-6.59,44.6,12.75,FO,1603194925,61,65
381,toppenish,46.38,-120.31,51.8,3.78,US,1603194926,1,87
382,kautokeino,69.01,23.04,29.21,2.13,NO,1603194926,82,97
383,leh,34.17,77.58,46.65,3.33,IN,1603194926,0,31
384,urbino,43.73,12.64,60.01,2.42,IT,1603194927,20,51
385,gat,31.61,34.76,88,1.99,IL,1603194927,0,49
386,sarkand,45.41,79.92,57.45,1.23,KZ,1603194927,5,31
387,tarko-sale,64.92,77.78,27.1,6.51,RU,1603194739,91,98
388,corinto,37.94,22.96,71.01,1.01,GR,1603194927,72,45
389,rjukan,59.88,8.59,33.8,2.24,NO,1603194727,75,80
390,port blair,11.67,92.75,81.12,13.76,IN,1603194927,78,83
391,ilheus,-14.79,-39.05,78.96,5.35,BR,1603194775,86,75
392,henties bay,-22.12,14.28,64,4,NA,1603194928,3,79
393,vila velha,-20.33,-40.29,75.99,6.93,BR,1603194928,90,88
394,abong mbang,3.98,13.18,80.15,2.48,CM,1603194928,31,75
395,mahebourg,-20.41,57.7,80.6,12.75,MU,1603194928,40,65
396,ishimbay,53.45,56.04,44.8,4.63,RU,1603194929,92,67
397,oceanside,33.2,-117.38,66.2,3.36,US,1603194929,90,100
398,la ronge,55.1,-105.28,24.89,3.15,CA,1603194929,100,82
399,paamiut,61.99,-49.67,39.7,23.04,GL,1603194730,100,74
400,harrisonburg,38.45,-78.87,54,4.68,US,1603194930,1,100
401,pacific grove,36.62,-121.92,53.6,2.77,US,1603194930,90,93
402,camacha,33.08,-16.33,71.6,25.28,PT,1603194930,40,68
403,ozinki,51.18,49.68,52.02,13.76,RU,1603194930,2,44
404,bousse,12.66,-1.89,93.2,8.05,BF,1603194930,20,52
405,montlucon,46.33,2.6,61,7.25,FR,1603194931,100,78
406,jeremie,18.65,-74.12,79.63,3.49,HT,1603194931,77,73
407,tarauaca,-8.16,-70.77,74.64,2.64,BR,1603194931,70,91
408,alofi,-19.06,-169.92,71.6,6.93,NU,1603194931,65,94
409,san jose,37.34,-121.89,59,0.72,US,1603194931,1,82
410,khawhai,23.37,93.12,63.12,0.16,IN,1603194931,93,100
411,nelson bay,-32.72,152.15,64,8.05,AU,1603194931,6,77
412,talakan,50.32,130.37,38.88,10.16,RU,1603194932,100,74
413,ciudad bolivar,8.12,-63.55,81.41,5.93,VE,1603194932,31,75
414,masuguru,-11.37,38.42,101.37,4.61,TZ,1603194933,1,19
415,tamiahua,21.27,-97.45,74.14,2.19,MX,1603194933,0,87
416,olivenza,38.68,-7.1,68,12.75,ES,1603194933,75,88
417,khammam,17.25,80.15,76.59,3.65,IN,1603194933,100,94
418,kokstad,-30.55,29.42,59.29,6.82,ZA,1603194933,57,75
419,kholmy,51.87,32.6,48.09,16.02,UA,1603194933,16,58
420,axim,4.87,-2.24,81.05,10.76,GH,1603194934,71,80
421,yerky,48.99,30.99,53.6,12.64,UA,1603194934,36,52
422,ratnagiri,16.98,73.3,81.32,5.59,IN,1603194934,94,81
423,rantepao,-2.97,119.9,68.36,1.66,ID,1603194935,78,88
424,boda,4.32,17.47,86.09,4.76,CF,1603194935,42,62
425,komsomolskiy,40.43,71.72,73.4,6.93,UZ,1603194935,0,25
426,lukulu,-14.37,23.24,101.53,7.4,ZM,1603194935,0,7
427,ancud,-41.87,-73.82,45,4.7,CL,1603194935,84,100
428,rio gallegos,-51.62,-69.22,39.2,17.22,AR,1603194935,52,62
429,richards bay,-28.78,32.04,72.55,18.1,ZA,1603194936,100,75
430,obihiro,42.92,143.2,39.2,5.82,JP,1603194721,20,86
431,ballina,-28.87,153.57,62.6,2.24,AU,1603194936,48,77
432,khislavichi,54.19,32.16,40.28,16.82,RU,1603194936,75,71
433,caravelas,-17.71,-39.25,78.17,8.08,BR,1603194936,98,77
434,srednekolymsk,67.45,153.68,18.32,2.19,RU,1603194936,98,97
435,kaligutan,7.7,125.81,82.4,11.41,PH,1603194937,75,78
436,tura,25.52,90.22,75.56,3.51,IN,1603194773,9,91
437,sfantu gheorghe,45.87,25.78,55.99,3.44,RO,1603194937,0,49
438,fortuna,40.6,-124.16,53.01,5.82,US,1603194937,90,100
439,edd,13.93,41.69,90.27,13.87,ER,1603194937,2,55
440,bubaque,11.28,-15.83,82.81,1.5,GW,1603194937,92,81
441,sekovici,44.3,18.85,59,2.24,BA,1603194938,20,58
442,rafai,4.95,23.92,88.7,3.49,CF,1603194938,21,50
443,fort-shevchenko,44.51,50.26,56.62,21.65,KZ,1603194938,33,74
444,acandi,8.51,-77.28,74.79,2.64,CO,1603194938,88,86
445,yulara,-25.24,130.99,80.6,1.12,AU,1603194938,0,54
446,lorengau,-2.02,147.27,81.79,2.89,PG,1603194938,94,70
447,cananeia,-25.01,-47.93,74.82,2.44,BR,1603194939,66,76
448,snezhnogorsk,69.19,33.25,33.8,4.47,RU,1603194939,75,100
449,mattru,7.62,-11.83,86.61,4.38,SL,1603194939,90,62
450,luxor,25.7,32.64,100.4,4.7,EG,1603194939,0,22
451,bambanglipuro,-7.95,110.28,79.23,8.7,ID,1603194939,39,83
452,amga,60.9,131.96,21.63,1.25,RU,1603194939,100,97
453,vao,-22.67,167.48,73.27,16.89,NC,1603194940,37,79
454,drovyanaya,51.58,113.03,33.8,13.42,RU,1603194940,20,47
455,pontes e lacerda,-15.23,-59.34,79.25,2.55,BR,1603194940,99,79
456,curico,-34.98,-71.23,50,8.05,CL,1603194940,0,81
457,irtyshskiy,58.33,68.13,40.91,6.76,RU,1603194940,96,87
458,amapa,1,-52,83.62,5.12,BR,1603194940,84,63
459,caconda,-13.73,15.07,91.83,8.03,AO,1603194941,0,13
460,cloquet,46.72,-92.46,28.4,3.38,US,1603194941,90,100
461,elektrostal,55.79,38.44,41,13.42,RU,1603194941,75,80
462,karabulak,43.3,44.9,57.2,6.38,RU,1603194942,75,62
463,yar-sale,66.83,70.83,21.61,3.51,RU,1603194942,98,98
464,eskil,38.4,33.41,70.34,4.36,TR,1603194942,22,41
465,kenora,49.82,-94.43,26.01,5.01,CA,1603194942,49,63
466,kaoma,-14.78,24.8,98.78,8.43,ZM,1603194943,6,8
467,mar del plata,-38,-57.56,54,3.36,AR,1603194943,50,76
468,suba,10.84,121.01,82.69,15.95,PH,1603194943,100,77
469,sovetskaya,44.78,41.17,56.98,8.77,RU,1603194943,99,60
470,altay,47.87,88.12,36.61,1.92,CN,1603194803,15,67
471,natchitoches,31.77,-93.13,62.6,3.22,US,1603194944,90,100
472,lahij,13.17,44.58,92.01,15.75,YE,1603194944,0,22
473,turukhansk,65.82,87.98,16.68,5.86,RU,1603194945,100,94
474,novo aripuana,-5.12,-60.38,84.29,3.31,BR,1603194945,96,62
475,montevideo,-34.83,-56.17,53.6,10.29,UY,1603194945,90,81
476,eureka,40.8,-124.16,52,1.01,US,1603194778,4,94
477,mantua,45.17,10.78,62.01,2.04,IT,1603194945,51,80
478,dwarka,22.24,68.97,86.41,11.79,IN,1603194945,1,69
479,ocala,29.19,-82.14,73.4,4.7,US,1603194854,1,100
480,coaticook,45.13,-71.8,51.8,9.17,CA,1603194946,90,93
481,erzin,36.96,36.2,80.01,7.14,TR,1603194946,45,71
482,grindavik,63.84,-22.43,39.2,5.82,IS,1603194946,40,80
483,san juan de los morros,9.91,-67.35,74.25,1.72,VE,1603194946,100,87
484,katangli,51.71,143.23,28.63,7.45,RU,1603194946,0,87
485,segou,13.43,-6.22,97.23,2.51,ML,1603194947,0,20
486,sakakah,29.97,40.21,91.4,5.82,SA,1603194947,0,8
487,avera,33.19,-82.53,57.2,5.82,US,1603194947,1,93
488,nivala,63.92,24.97,30,3,FI,1603194947,84,91
489,wachtberg,50.62,7.13,57,5.01,DE,1603194947,99,68
490,lasa,46.62,10.7,57,10.29,IT,1603194948,20,80
491,belaya gora,68.53,146.42,6.39,1.45,RU,1603194948,36,92
492,north bend,43.41,-124.22,52,5.57,US,1603194948,1,100
493,bezhetsk,57.79,36.7,37.42,12.5,RU,1603194948,97,80
494,beibei,29.83,106.43,61,6.71,CN,1603194949,40,72
495,safranbolu,41.25,32.69,66.79,2.24,TR,1603194949,58,50
496,napier,-39.48,176.92,59,1.99,NZ,1603194949,100,79
497,zhangye,38.93,100.45,50.86,5.61,CN,1603194949,0,39
498,excelsior springs,39.34,-94.23,41,5.82,US,1603194950,90,75
499,qurayyat,31.33,37.34,93.2,11.41,SA,1603194746,0,8
500,jian,27.12,114.98,64.35,4.99,CN,1603194950,100,79
501,daru,-9.08,143.21,79.72,11.34,PG,1603194950,83,83
502,bikin,46.82,134.26,41.2,4.81,RU,1603194950,0,72
503,kaihua,23.37,104.28,54,4.29,CN,1603194950,97,90
504,wadi maliz,36.47,8.55,71.6,3.36,TN,1603194950,0,40
505,grand gaube,-20.01,57.66,80.01,13,MU,1603194758,0,63
506,tatawin,32.93,10.45,75.2,4.7,TN,1603194951,0,33
507,port augusta,-32.5,137.77,69.8,3.36,AU,1603194774,90,49
508,calabozo,8.92,-67.43,76.91,3.31,VE,1603194951,81,93
509,namie,37.48,141,53.01,1.01,JP,1603194951,0,93
